"id","sighted_at","reported_at","location","shape","duration","description","latitude","longitude","case_number"
"90901","2018-02-20T19:30:00Z","2018-03-20T12:28:57Z","Myrtle Beach (United States)","Triangle","00:10:00","","33.6655645761825388764584943146473960950970649719238281250","-78.9598993339085682168082769294414902105927467346191406250","US-03202018-0009"
"90902","1983-07-10T23:30:00Z","2018-03-20T14:08:56Z","Beringen (Belgium)","Oval","00:01:00","","51.04941000000000173031367012299597263336181640625","5.22858999999999962682295517879538238048553466796875","BE-03202018-0010"
"90903","1984-04-30T00:00:00Z","2018-03-20T14:40:49Z","Bowen (United States)","Cylinder","01:00:00","","40.2281969","-91.0646751","US-03202018-0011"
"90904","2016-10-21T00:00:00Z","2018-03-20T16:43:59Z","Jamestown (United States)","Triangle","00:01:00","","37.95183437443661620879176155085588106885552406311035156250","-120.40883195257080450317310749142052372917532920837402343750","US-03202018-0012"
"90905","2018-03-20T11:35:00Z","2018-03-20T17:05:00Z","Belfast (United Kingdom)","Circle","00:00:10","","54.59307600481201855554012070115277310833334922790527343750","-5.9635033314852035439344035694375634193420410156250","GB-03202018-0013"
"90906","2013-04-10T00:00:00Z","2018-03-20T17:50:56Z","London (United Kingdom)","Unknown","00:00:01","","51.58277409013411474725252503503725165501236915588378906250","-0.37742464152853221759364998888486297801136970520019531250","GB-03202018-0014"
"90907","2013-04-10T00:00:00Z","2018-03-20T17:59:58Z","London (United Kingdom)","Unknown","00:00:01","","51.542635774609755316966186455829301849007606506347656250","-0.36006461449304997812781437005469342693686485290527343750","GB-03202018-0016"
"90908","2016-07-15T00:00:00Z","2018-03-20T20:08:56Z","Cuba (United States)","Star-like","00:05:00","","42.08639901386880644308341459236544324085116386413574218750","-78.33797741631308943438843390595138771459460258483886718750","US-03202018-0016"
"90909","2018-03-17T19:04:00Z","2018-03-20T20:36:13Z","Marco Island (United States)","Cylinder","00:05:00","","25.96190216264419143935135991796414600685238838195800781250","-81.69395162287462446712460462094895774498581886291503906250","US-03202018-0017"
"90910","2018-03-20T06:35:00Z","2018-03-20T20:47:12Z","None (United States)","N,    A","00:01:00","","40.0640437999999932117134449072182178497314453125","-74.402991200000002436354407109320163726806640625","US-03202018-0018"
"90911","2018-03-17T06:00:00Z","2018-03-20T20:28:03Z","Coldwater (United States)","Star-like","00:05:00","","41.9310395002886301729638773849728750064969062805175781250","-85.04097509797026606670478088290110463276505470275878906250","US-03202018-0019"
"90912","2016-06-30T00:00:00Z","2018-03-20T21:27:05Z","Avignon (France)","Cone","00:00:20","","43.9508521","4.8076971","FR-03202018-0020"
"90913","2018-03-20T21:30:00Z","2018-03-20T22:43:31Z","Syracuse (United States)","Other","00:02:30","","43.0471998","-76.2005535","US-03202018-0021"
"90914","2018-03-20T21:40:00Z","2018-03-20T23:30:00Z","Toronto (Canada)","Star-like","00:00:30","","43.66239599999999398960426333360373973846435546875","-79.3740442999999942230715532787144184112548828125","CA-03202018-0022"
"90915","2013-11-15T00:00:00Z","2018-03-20T23:36:29Z","None (United States)","Egg","00:15:00","","36.7871209999999990714059094898402690887451171875","-119.4131323999999949592165648937225341796875","US-03202018-0023"
"90916","2017-07-24T04:08:00Z","2018-03-21T05:41:27Z","San Diego (United States)","Star-like","00:04:00","","32.55906611764461819621523375190008664503693580627441406250","-117.05745899441545178136472316055005649104714393615722656250","AU-03212018-0001"
"90917","2018-03-18T22:15:00Z","2018-03-21T08:51:20Z","Caledon (Canada)","Triangle","00:00:03","","43.8533625093060401349468691023503197357058525085449218750","-79.8522531818827013155329300298035377636551856994628906250","CA-03212018-0002"
"90918","2018-03-20T00:00:00Z","2018-03-21T10:53:13Z","Montréal (Canada)","Flash","01:00:00","","45.4461974248052785725845378783560590818524360656738281250","-73.58479879469747749984780999966460512951016426086425781250","CA-03212018-0003"
"90919","2018-03-20T00:00:00Z","2018-03-21T10:55:27Z","San Antonio (United States)","N,    A","00:05:00","","29.58838422379347791478210183413466438651084899902343750","-98.463630932662558724139501009631203487515449523925781250","US-03212018-0004"
"90920","2014-12-14T21:17:00Z","2018-03-21T11:35:33Z","FLORIANOPOLIS (Brazil)","Cigar","00:10:00","","-27.603092","-48.4712296","BR-03212018-0005"
"90921","2018-02-21T15:32:00Z","2018-03-21T14:37:16Z","Graz (Austria)","Cone","01:00:00","","47.12471834294733865392963423346373019739985466003417968750","15.38928479374706317571899205631780205294489860534667968750","AT-03212018-0006"
"90922","2012-04-15T02:00:00Z","2018-03-21T14:54:42Z","Peterborough (Canada)","N,    A","00:30:00","","44.31364792662540598954912240969861159101128578186035156250","-78.3154018761765897886719503640051698312163352966308593750","CA-03212018-0007"
"90923","2018-03-19T12:20:00Z","2018-03-21T16:18:54Z","Tel Aviv-Yafo (Israel)","N,    A","00:20:00","","32.093299900000005209221853874623775482177734375","34.78552759999998755802153027616441249847412109375","IL-03212018-0008"
"90924","2018-03-06T00:00:00Z","2018-03-21T18:26:23Z","Cape Coral (United States)","Oval","00:00:40","","26.566543700000000427507984568364918231964111328125","-81.9416030999999946971001918427646160125732421875","US-03212018-0009"
"90925","2018-03-19T20:54:00Z","2018-03-21T18:48:34Z","None (United States)","N,    A","01:00:00","","47.75694409999999834326445125043392181396484375","-120.7390884999999940419002086855471134185791015625","US-03212018-0010"
"90926","2010-02-13T00:00:00Z","2018-03-21T20:42:02Z","Managua (Nicaragua)","Disc","00:01:00","","12.1149926","-86.2361744","NI-03212018-0011"
"90928","2018-03-15T19:21:00Z","2018-03-21T22:27:14Z","Santee (United States)","Circle","01:00:00","","32.8386258","-116.9838543","US-03212018-0013"
"90929","2018-03-21T00:00:00Z","2018-03-21T22:36:56Z","La Vergne (United States)","Sphere","00:04:00","","36.0255042933982203816690059738903073593974113464355468750","-86.53846840030706891335796626663068309426307678222656250","US-03212018-0014"
"90930","2018-03-20T00:00:00Z","2018-03-21T23:30:12Z","Palm Desert (United States)","Other","01:00:00","","33.74997428971839818345834771662339335307478904724121093750","-116.33033754940441452240698083642200799658894538879394531250","US-03212018-0015"
"90931","1993-06-01T00:00:00Z","2018-03-21T23:41:18Z","Otisco (United States)","Triangle","01:00:00","","38.56083886691644848133968537240434670820832252502441406250","-85.68390269534581698283979278585320571437478065490722656250","US-03212018-0016"
"90932","2018-03-21T23:24:00Z","2018-03-22T00:54:21Z","Haines City (United States)","Circle","00:15:00","","28.075552216143492609624843225901713594794273376464843750","-81.53519836776034300178217506527289515361189842224121093750","US-03222018-0001"
"90933","2017-08-21T13:35:00Z","2018-03-22T01:00:59Z","Crossville (United States)","Dumbbell","00:00:02","","35.87732189276286426833451059792423620820045471191406250","-84.97173041167126112741930261563538806512951850891113281250","US-03222018-0002"
"90934","2018-03-21T21:48:00Z","2018-03-22T01:07:52Z","Toronto (Canada)","N,    A","00:01:00","","43.657499153839404281472980073885992169380187988281250","-79.45088602612466136293782881239167181774973869323730468750","CA-03222018-0003"
"90935","2018-03-19T00:00:00Z","2018-03-22T01:14:32Z","None (United States)","Sphere","","","31.970008799999998672092260676436126232147216796875","-99.894923099999999749343260191380977630615234375","US-03222018-0004"
"90937","2018-03-22T00:00:00Z","2018-03-22T02:48:03Z","Lansing (United States)","Cigar","00:05:00","","39.2486126","-94.90024129999999","US-03222018-0006"
"90938","2018-03-20T21:30:00Z","2018-03-22T11:25:09Z","Wolf Point (United States)","Blimp","00:02:00","","48.091743600000000924410414882004261016845703125","-105.6376565999999996847691363655030727386474609375","US-03222018-0007"
"90939","2018-03-21T22:50:00Z","2018-03-22T12:26:56Z","Plainwell (United States)","Cross","00:40:00","","42.44465433825384782125489380177896237000823020935058593750","-85.63077541611360075858385698666097596287727355957031250","US-03222018-0008"
"90940","2018-03-16T00:00:00Z","2018-03-22T13:44:09Z","Leander (United States)","Sphere","00:02:00","","30.5232053351602365775356417998409597203135490417480468750","-97.8630880607779501523272863505553686991333961486816406250","US-03222018-0009"
"90941","2018-03-21T00:00:00Z","2018-03-22T16:03:12Z","Idaho Falls (United States)","N,    A","","","43.510225588657146600571934413892449811100959777832031250","-112.0779782061030184636500450778839876875281333923339843750","US-03222018-0010"
"90942","2012-08-13T14:08:00Z","2018-03-22T16:34:46Z","None (United States)","Sphere","00:02:00","","36.7846109999999981710061547346413135528564453125","-119.4136323999999973466401570476591587066650390625","US-03222018-0011"
"90943","2016-08-16T02:40:00Z","2018-03-22T16:51:01Z","Orangeville (Canada)","Star-like","00:40:00","","43.92395880000000119025571621023118495941162109375","-80.0916112999999967314579407684504985809326171875","CA-03222018-0012"
"90944","2012-11-30T19:30:00Z","2018-03-22T17:09:25Z","None (United States)","Unknown","00:00:10","","37.43743339999999619749360135756433010101318359375","-78.654414199999990842115948908030986785888671875","US-03222018-0013"
"90945","2018-03-22T15:30:00Z","2018-03-22T17:11:49Z","Bolingbrook (United States)","Star-like","00:20:00","","41.681848935949736730550796437455574050545692443847656250","-88.07534908442554626407208218097366625443100929260253906250","US-03222018-0014"
"90946","2018-03-22T08:38:00Z","2018-03-22T17:25:35Z","Orange (United States)","Unknown","00:02:00","","33.79194389999999970086719258688390254974365234375","-117.845510700000005499532562680542469024658203125","US-03222018-0015"
"90947","2015-10-15T00:00:00Z","2018-03-22T17:27:45Z","Canton (United States)","Sphere","00:10:00","","34.16637444514843705609088431174313882365822792053222656250","-84.51020512806083992264636923664511414244771003723144531250","US-03222018-0016"
"90949","2017-10-22T00:00:00Z","2018-03-22T18:20:30Z","Vernon (Canada)","Sphere","00:01:00","","50.27515369999999705896698287688195705413818359375","-119.2677806999999887693775235675275325775146484375","CA-03222018-0018"
"90950","2016-01-13T14:46:00Z","2018-03-22T18:33:51Z","Dallas (United States)","Cigar","00:05:00","I witnessed this reflective object while driving, and stopped to take a picture. it was crystal clear that day, and as the object moved i noticed a reflection on something that i couldn't explain. as i drove it appeared to go in the basic direction that i was going. when i had an opportunity to pull off the road to photograph it, it appeared to change it's shape. it was no longer the reflective kind of dome or football, but i captured it on my phone camera in the shape of a cigar like object. as i studied the picture i can see a very small white orb just beneath the 2 power lined and slightly to the right of what i photographed. also noteworthy is that it was broad daylight and i didn't see anyone else looking to see what i was watching. in fact no one even seemed to believe me when i showed the the picture. i believe i moved to a very active ufo area while living near dobbins air reserve base in marietta ga.   ","33.8927360767643645154159059984522173181176185607910156250","-84.82317365282531062460951749471860239282250404357910156250","US-03222018-0019"
"90951","2018-03-22T21:10:00Z","2018-03-22T21:35:24Z","Dunnellon (United States)","N,    A","","","29.13918924564037501069257984909199876710772514343261718750","-82.51413729680387587586629649649694329127669334411621093750","US-03222018-0020"
"90952","2017-07-07T00:00:00Z","2018-03-22T21:47:09Z","Buffalo (United States)","Square,    Rectangular","00:00:01","","42.89599679999998471657818299718201160430908203125","-78.8711689000000006899426807649433612823486328125","US-03222018-0021"
"90953","2018-03-22T21:15:00Z","2018-03-22T22:07:58Z","Flint (United States)","Circle","02:00:00","","42.97694233721566167509671174684626748785376548767089843750","-83.75484898404021964572099851920938817784190177917480468750","US-03222018-0022"
"90954","2018-01-27T00:00:00Z","2018-03-22T22:12:05Z","Marysville (United States)","Sphere","01:00:00","","48.0546436999999997397026163525879383087158203125","-122.1710217999999912308339844457805156707763671875","US-03222018-0023"
"90955","2017-09-13T23:13:00Z","2018-03-22T22:17:19Z","Buffalo (United States)","Other","00:00:02","","42.9234195625787311901660814328351989388465881347656250","-78.8380156771879950308091369970497908070683479309082031250","US-03222018-0024"
"90956","2018-02-18T16:45:00Z","2018-03-22T22:25:48Z","New Orleans (United States)","Cylinder","00:05:00","","29.959725799999990414335115929134190082550048828125","-90.069852300000007971902959980070590972900390625","US-03222018-0025"
"90957","2017-12-31T21:03:00Z","2018-03-22T22:31:42Z","Buffalo (United States)","N,    A","00:03:00","","42.93531280409424323862843664301180979236960411071777343750","-78.81037951106387489663696044317475752905011177062988281250","US-03222018-0026"
"90958","2017-10-13T05:45:00Z","2018-03-22T22:56:23Z","Los Angeles (United States)","Triangle","00:00:55","","33.989216900000002397064235992729663848876953125","-118.4648432000000042307874537073075771331787109375","US-03222018-0027"
"90959","2018-03-22T22:37:00Z","2018-03-23T00:10:43Z","Chatsworth (United States)","Triangle","00:00:30","","34.7802531","-84.7697156","US-03232018-0001"
"90960","2018-03-21T18:40:00Z","2018-03-23T00:13:05Z","DFW Airport (United States)","Disc","00:00:04","","32.90227793067460203002561058838182361796498298645019531250","-97.01196265202963182061601798977790167555212974548339843750","US-03232018-0002"
"90961","2018-03-22T23:28:00Z","2018-03-23T00:54:21Z","None (United States)","Star-like","00:08:00","","31.97713879999999875280991545878350734710693359375","-99.891953099999994947211234830319881439208984375","US-03232018-0003"
"90962","2018-03-07T01:00:00Z","2018-03-23T01:00:29Z","Strafford (United States)","Triangle","00:02:00","","37.298373278882329116477478692104341462254524230957031250","-93.1741185682904326313682474847155390307307243347167968750","US-03232018-0004"
"90963","2015-12-23T16:10:00Z","2018-03-23T02:13:53Z","Santa Fe (United States)","N,    A","00:01:00","","35.69377519999999748279151390306651592254638671875","-105.9335689999999914334694040007889270782470703125","US-03232018-0005"
"90964","2018-03-13T00:00:00Z","2018-03-23T02:23:33Z","None (United States)","Unknown","00:01:27","","40.27110409999999518504409934394061565399169921875","-86.131621899999998959174263291060924530029296875","US-03232018-0006"
"90965","2018-03-22T21:30:00Z","2018-03-23T03:08:05Z","Aledo (United States)","Chevron","00:00:30","","32.7549485819338473361831631791574181988835334777832031250","-97.5587244271317841248979618740122532472014427185058593750","US-03232018-0007"
"90966","1999-07-22T22:23:00Z","2018-03-23T03:12:56Z","Izhevsk (Russia)","Disc","00:00:08","","56.8506247","53.212374","RU-03232018-0008"
"90967","2015-02-10T00:00:00Z","2018-03-23T09:35:36Z","Raymond (United States)","Triangle","00:10:00","","43.8946108","-70.4574751","US-03232018-0009"
"90968","2018-03-10T21:30:00Z","2018-03-23T09:52:35Z","Dover (United States)","N,    A","00:15:00","","39.16097396947601650826591423992795171216130256652832031250","-75.59545478190843958398374979879008606076240539550781250","US-03232018-0010"
"90969","1890-10-10T01:10:00Z","2018-03-23T10:28:52Z","Washington (United States)","Egg","12:16:59","","38.8601217","-76.96637989999999","US-03232018-0011"
"90970","2018-03-23T09:26:00Z","2018-03-23T11:04:08Z","Oswego (United States)","Disc","00:15:00","","43.44050220541663855799754401232348755002021789550781250","-76.3710906797311356361539935733162565156817436218261718750","US-03232018-0012"
"90971","2017-01-14T17:24:00Z","2018-03-23T11:45:51Z","Columbus (United States)","Disc","00:15:00","","32.4744001896634710203024098973401123657822608947753906250","-84.93389665287714519698205606346164131537079811096191406250","US-03232018-0013"
"90972","2018-03-23T01:00:00Z","2018-03-23T12:40:04Z","None (United States)","N,    A","04:00:00","","35.76819309999999774163370602764189243316650390625","-79.0175096999999908575773588381707668304443359375","US-03232018-0014"
"90973","2018-03-22T19:39:00Z","2018-03-23T13:05:47Z","Twin Falls (United States)","Disc","00:10:00","","42.5558381","-114.4700518","US-03232018-0015"
"90974","2018-03-22T19:05:00Z","2018-03-23T13:28:13Z","North Brunswick Township (United States)","Triangle","00:01:05","","40.46897526652856158021798194113216595724225044250488281250","-74.4777511981414924189699888756877044215798377990722656250","US-03232018-0016"
"90975","1997-03-13T22:30:00Z","2018-03-23T13:34:56Z","Santa Fe (United States)","Boomerang","00:15:00","","35.64164996573997643736824159077514195814728736877441406250","-105.97518379687537611992347308387252269312739372253417968750","US-03232018-0017"
"90976","2005-07-31T22:40:00Z","2018-03-23T13:39:49Z","Douglas (United States)","Sphere","00:00:20","","31.3445471","-109.5453447","GB-03232018-0018"
"90977","2018-03-01T18:29:00Z","2018-03-23T13:46:31Z","Cave Creek (United States)","Fireball","00:16:00","","33.84191160000000309082679450511932373046875","-111.9427542000000102007106761448085308074951171875","US-03232018-0020"
"90978","2018-03-22T00:00:00Z","2018-03-23T15:16:06Z","Port Charlotte (United States)","Other","00:00:03","","26.9735709257425630214505929416191065683960914611816406250","-82.13183826734746503925919114408316090703010559082031250","US-03232018-0020"
"90979","2018-03-23T00:00:00Z","2018-03-23T17:42:06Z","Camby (United States)","N,    A","","","39.61170853922237775654657809809577884152531623840332031250","-86.31967579905951852824763648186490172520279884338378906250","US-03232018-0021"
"90980","2018-03-19T00:00:00Z","2018-03-23T17:55:43Z","Drums (United States)","Unknown","00:04:00","","41.0079898","-76.0363251","US-03232018-0022"
"90981","2017-10-31T00:00:00Z","2018-03-23T17:56:42Z","North Platte (United States)","Other","00:00:02","","41.13643949215139862854506702660728478804230690002441406250","-100.7836234386341981744941165288764750584959983825683593750","US-03232018-0023"
"90985","2018-03-18T12:00:00Z","2018-03-23T18:50:13Z","Sanford (United States)","Teardrop","00:20:00","","43.43914831967925538558858988835709169507026672363281250","-70.78027161452201831752344991400605067610740661621093750","US-03232018-0027"
"90986","2018-03-16T02:43:00Z","2018-03-23T20:45:04Z","Johnston City (United States)","Star-like","01:45:00","","37.8140790975585940655243177843658486381173133850097656250","-88.92559398900464535120526932132634101435542106628417968750","US-03232018-0028"
"90987","2018-01-07T21:00:00Z","2018-03-23T20:52:18Z","Zephyrhills (United States)","Circle","00:02:00","","28.19672551136007648970753791672905208542943000793457031250","-82.16722169799883748650420362992008449509739875793457031250","US-03232018-0029"
"90988","2018-03-06T12:15:00Z","2018-03-23T21:43:57Z","Williams (United States)","Disc","","","35.0012014","-111.9219601","US-03232018-0030"
"90989","2002-12-23T00:00:00Z","2018-03-23T22:05:39Z","Valdivia (Chile)","N,    A","","","-39.81963055788085962163656006396195152774453163146972656250","-73.22372816449656825350207929204771062359213829040527343750","CL-03232018-0031"
"90990","2017-12-16T13:15:00Z","2018-03-23T22:40:52Z","Warwick (United States)","Fireball","00:05:00","","41.71102444093762416426081074405374238267540931701660156250","-71.5074751376193598308439902666577836498618125915527343750","US-03232018-0032"
"90991","2018-03-23T21:30:00Z","2018-03-23T22:56:49Z","Columbus (United States)","Oval","00:03:00","","39.9532583","-82.9972851","US-03232018-0033"
"90992","2017-08-24T20:13:00Z","2018-03-23T23:02:13Z","Palm Bay (United States)","Fireball","00:03:56","","28.01566449213148977333638356412848224863409996032714843750","-80.5813093252337199417156657455052481964230537414550781250","US-03232018-0034"
"90993","2002-09-12T00:00:00Z","2018-03-23T23:07:07Z","None (United States)","Disc","","","27.66858739999999983183442964218556880950927734375","-81.5061035000000089212335296906530857086181640625","US-03232018-0035"
"90994","2018-03-23T21:50:00Z","2018-03-24T00:30:06Z","Cambridge (Canada)","Star-like","00:07:00","","43.37018110000000348236426361836493015289306640625","-80.3092275999999998248313204385340213775634765625","CA-03242018-0001"
"90995","2018-03-23T22:30:00Z","2018-03-24T00:49:28Z","Longmont (United States)","Sphere","00:00:04","","40.14503134056263557299750743823096854612231254577636718750","-105.11503782433993202570086111791169969365000724792480468750","US-03242018-0002"
"90996","2016-09-06T15:00:00Z","2018-03-24T03:30:33Z","Salado (United States)","Triangle","00:00:10","","30.9471278","-97.53862040000001","US-03242018-0003"
"90997","2015-12-04T00:00:00Z","2018-03-24T04:04:40Z","South Lake Tahoe (United States)","N,    A","06:00:00","","38.944215690767610833397327496641082689166069030761718750","-119.95928002464088945278497533308836864307522773742675781250","US-03242018-0004"
"90998","2018-03-24T04:15:00Z","2018-03-24T07:13:36Z","Old Bridge Township (United States)","Sphere","00:25:57","","40.3907383873516223292661209143261658027768135070800781250","-74.34779008275142999502129725897248135879635810852050781250","US-03242018-0005"
"90999","2018-02-19T19:15:00Z","2018-03-24T11:59:12Z","Drayton Valley (Canada)","Circle","07:00:00","","53.2214074","-114.9766785","CA-03242018-0007"
"91000","1988-05-19T19:15:00Z","2018-03-24T14:15:07Z","Sugar Grove (United States)","Unknown","00:08:00","","41.7935773","-88.46194369999999","US-03242018-0007"
"91001","2017-08-27T20:01:00Z","2018-03-24T14:22:08Z","Campbell River (Canada)","Disc","","","49.93687546190886072084502700363373151049017906188964843750","-125.23820659602923443044097950860304990783333778381347656250","CA-03242018-0008"
"91002","2018-03-22T16:30:00Z","2018-03-24T16:36:41Z","Keller (United States)","Sphere","00:03:00","","32.9341893","-97.229298","US-03242018-0009"
"91003","2018-03-24T00:00:00Z","2018-03-24T20:32:42Z","Richlands (United States)","Sphere","00:10:00","","34.90353970000000316531441058032214641571044921875","-77.5418341999999967129042488522827625274658203125","US-03242018-0010"
"91004","2018-03-22T08:20:00Z","2018-03-24T20:48:18Z","New York (United States)","Unknown","00:00:20","","40.7181252999999969688360579311847686767578125","-73.99793280000000095242285169661045074462890625","US-03242018-0011"
"91005","2018-03-22T23:45:00Z","2018-03-24T20:51:35Z","Coquitlam (Canada)","Square,    Rectangular","00:01:00","","49.2837626","-122.7932065","CA-03242018-0012"
"91006","2018-03-24T22:13:00Z","2018-03-24T22:57:13Z","San Miguel de Tucumán (Argentina)","Sphere","02:00:00","","-26.79838480000000089376044343225657939910888671875","-65.2139102999999948906406643800437450408935546875","AR-03242018-0013"
"91008","2018-03-24T21:20:00Z","2018-03-25T01:53:40Z","None (United States)","N,    A","00:10:00","","47.75459409999999849105734028853476047515869140625","-120.735218500000001995431375689804553985595703125","US-03252018-0001"
"91009","2018-03-25T05:31:00Z","2018-03-25T07:06:16Z","Detroit (United States)","N,    A","00:00:10","","42.46403586311373110389020268939930247142910957336425781250","-83.22509041205406887223468004322057822719216346740722656250","US-03252018-0002"
"91010","2009-02-01T00:00:00Z","2018-03-25T07:24:31Z","Boulder (United States)","Sphere","00:20:00","","39.9968022","-105.2886692","US-03252018-0003"
"91011","2018-03-25T16:20:00Z","2018-03-25T10:38:15Z","Schiedam (Netherlands)","Star-like","00:20:00","","51.9221121","4.3887713","NL-03252018-0005"
"91012","2018-02-01T00:00:00Z","2018-03-25T11:33:57Z","Mill Valley (United States)","Sphere","00:00:00","","37.9157368000000047913999878801405429840087890625","-122.535496300000005476249498315155506134033203125","US-03252018-0007"
"91013","2018-02-27T06:30:00Z","2018-03-25T10:00:06Z","Miller (United States)","N,    A","00:10:00","","37.2147751","-93.83993129999999","US-03252018-0007"
"91014","2018-03-24T20:17:00Z","2018-03-25T14:15:53Z","Årjäng (Sweden)","Sphere","","","59.37939938872826203515167264868068741634488105773925781250","12.1081480148396579512585446991579374298453330993652343750","SE-03252018-0008"
"91015","1977-07-12T22:08:00Z","2018-03-25T15:39:44Z","Hamilton (Canada)","Other","00:20:17","","43.26477820467473177373882720075926044955849647521972656250","-79.96996016287418195708601193928188877180218696594238281250","CA-03252018-0009"
"91016","2018-03-24T21:03:00Z","2018-03-25T16:00:56Z","Merced (United States)","N,    A","00:01:18","","37.3330526781813182698876119047781685367226600646972656250","-120.47125720627712259223507373917527729645371437072753906250","US-03252018-0010"
"91017","2018-03-25T20:02:00Z","2018-03-25T16:14:14Z","Liverpool (United Kingdom)","Sphere","00:00:30","","53.4330881","-2.8597089","GB-03252018-0011"
"91018","2018-03-24T00:00:00Z","2018-03-25T16:35:51Z","Alma (United States)","Circle","00:02:00","","35.48194529999999957681211526505649089813232421875","-94.2122552000000013094904716126620769500732421875","US-03252018-0012"
"91019","2018-03-21T09:48:00Z","2018-03-25T19:43:36Z","Toronto (Canada)","N,    A","00:01:00","","43.6370536","-79.43873429999999","CA-03252018-0013"
"91020","2018-03-23T21:05:00Z","2018-03-25T20:36:03Z","Audubon (United States)","Sphere","00:05:00","","40.1308415","-75.4015636","US-03252018-0014"
"91021","2018-03-23T00:00:00Z","2018-03-25T21:59:21Z","Crystal River (United States)","Star-like","00:20:00","","28.85425296399024333972072042797663016244769096374511718750","-82.65487964216882058357604989851097343489527702331542968750","US-03252018-0015"
"91022","2018-03-24T16:15:00Z","2018-03-25T22:25:53Z","Los Angeles (United States)","Unknown","00:00:01","","34.1370859","-118.2198305","US-03252018-0016"
"91023","2018-03-25T19:50:00Z","2018-03-25T23:36:57Z","Daly City (United States)","Sphere","08:10:05","","37.69295978855171298462387596828193636611104011535644531250","-122.45551882175562400962540721138793742284178733825683593750","US-03252018-0017"
"91024","2017-06-30T00:00:00Z","2018-03-26T02:05:06Z","Peotone (United States)","Sphere","00:00:48","","41.3322554","-87.78532170000001","US-03262018-0001"
"91025","2018-02-18T00:00:00Z","2018-03-26T04:05:54Z","Kahului (United States)","Disc","00:05:00","","20.8857195","-156.4266215","US-03262018-0002"
"91027","2018-03-26T14:24:00Z","2018-03-26T04:40:36Z","Bristol (United Kingdom)","Bullet,    Missile","00:02:00","","51.46384299999999711872078478336334228515625","-2.586539999999999839275233171065337955951690673828125","GB-03262018-0004"
"91028","2018-03-25T18:45:00Z","2018-03-26T09:06:53Z","None (United States)","Unknown","","","31.973768799999998435623638215474784374237060546875","-99.8973730999999958157786750234663486480712890625","US-03262018-0005"
"91029","2018-03-24T13:35:00Z","2018-03-26T09:45:59Z","Port Orange (United States)","Sphere","00:20:00","","29.12333559999999","-81.0183476","US-03262018-0006"
"91030","1976-06-15T00:00:00Z","2018-03-26T10:06:52Z","Flint (United States)","Oval","00:10:00","","43.0507651","-83.6554275","US-03262018-0007"
"91031","2002-02-28T00:00:00Z","2018-03-26T10:19:03Z","None (United Kingdom)","Other","00:20:00","","52.79988789999999","-2.1020698","GB-03262018-0008"
"91032","2018-03-25T23:38:00Z","2018-03-26T11:14:38Z","None (Canada)","Circle","00:38:00","","53.7296683000000001584339770488440990447998046875","-127.637730500000003530658432282507419586181640625","CA-03262018-0009"
"91033","1978-06-10T21:00:00Z","2018-03-26T11:41:26Z","Newquay (United Kingdom)","Unknown","00:10:00","","50.42068699999998671046341769397258758544921875","-5.0658189999999994057588992291130125522613525390625","GB-03262018-0010"
"91034","2018-03-19T00:00:00Z","2018-03-26T14:29:27Z","New York (United States)","Boomerang","00:05:00","","40.754078620299210383301158344693249091506004333496093750","-73.98413101707629436903879138753836741670966148376464843750","US-03262018-0011"
"91035","1972-04-15T03:00:00Z","2018-03-26T16:04:29Z","Upper Darby (United States)","N,    A","00:05:00","","39.982760270441364888746704764344030991196632385253906250","-75.2943277274692374142261996894376352429389953613281250","US-03262018-0012"
"91036","1988-08-30T00:00:00Z","2018-03-26T17:16:19Z","Bruce Mines (Canada)","Sphere","00:10:00","","46.3002729","-83.79347390000001","CA-03262018-0013"
"91037","2017-09-30T00:00:00Z","2018-03-26T17:45:33Z","Roswell (United States)","N,    A","00:00:04","","33.4004455000000035624907468445599079132080078125","-104.5214041999999921017661108635365962982177734375","US-03262018-0014"
"91038","2017-12-18T00:00:00Z","2018-03-26T17:56:18Z","Darlaston (United Kingdom)","Circle","00:10:00","","52.54888132426760562818763844461500411853194236755371093750","-2.0655756724574639875235959607380209490656852722167968750","GB-03262018-0015"
"91039","2003-02-24T06:30:00Z","2018-03-26T19:14:58Z","North Port (United States)","Unknown","00:02:00","","27.01740310700589490334699860341061139479279518127441406250","-82.2034862540582904892859264600701862946152687072753906250","US-03262018-0016"
"91040","2018-03-25T17:35:00Z","2018-03-26T20:58:09Z","None (United States)","Sphere","00:07:00","","31.971288799999999952206053421832621097564697265625","-99.9005331000000040830855141393840312957763671875","US-03262018-0017"
"91041","2018-03-26T21:15:00Z","2018-03-26T22:06:09Z","Malvern (United States)","Unknown","00:00:10","","40.03921840000000287318471237085759639739990234375","-75.5053817999999949961420497857034206390380859375","US-03262018-0018"
"91042","2018-03-26T21:30:00Z","2018-03-26T22:21:27Z","None (Canada)","Other","","","52.94858590000000475583874504081904888153076171875","-73.54080609999999751380528323352336883544921875","CA-03262018-0019"
"91043","1976-11-15T00:00:00Z","2018-03-27T01:05:49Z","Kapuskasing (Canada)","N,    A","","","49.43553536262518196601938313960999948903918266296386718750","-82.39585409260422890266077899923402583226561546325683593750","CA-03272018-0001"
"91044","2018-03-25T00:00:00Z","2018-03-27T01:17:49Z","San Antonio (United States)","Sphere","00:05:00","","29.3628847","-98.48136120000001","US-03272018-0002"
"91045","2017-09-15T01:00:00Z","2018-03-27T02:12:40Z","Reedley (United States)","Circle","00:00:05","","36.54859694171623842759650813150074100121855735778808593750","-119.4532300709868813632503758981329156085848808288574218750","US-03272018-0003"
"91046","2018-03-27T00:00:00Z","2018-03-27T02:34:43Z","West Valley City (United States)","Triangle","00:00:30","","40.707101033406678740963968721189303323626518249511718750","-111.98237644680505861026595937346428399905562400817871093750","US-03272018-0004"
"91047","2016-04-05T01:01:00Z","2018-03-27T04:19:10Z","None (United States)","Oval","06:08:07","","38.92043249999999687815943616442382335662841796875","-75.5234698999999949364791973493993282318115234375","US-03272018-0005"
"91048","2018-01-10T00:00:00Z","2018-03-27T05:38:25Z","Feilding (New Zealand)","Sphere","00:00:30","","-40.195627952096076706071414719190215691924095153808593750","175.55131680444062760909140763487812364473938941955566406250","NZ-03272018-0006"
"91049","2017-12-26T00:00:00Z","2018-03-27T07:04:58Z","Las Vegas (United States)","Triangle","00:15:00","","36.171501199999994469180819578468799591064453125","-115.1318796000000048707079258747398853302001953125","US-03272018-0007"
"91050","2018-03-26T23:12:00Z","2018-03-27T10:41:57Z","North Bay Village (United States)","Circle","03:00:00","","25.8462074","-80.1539351","US-03272018-0008"
"91052","2018-03-20T00:00:00Z","2018-03-27T12:22:24Z","Eloy (United States)","N,    A","00:00:10","","32.75799620000000089703462435863912105560302734375","-111.548954000000009045834303833544254302978515625","US-03272018-0010"
"91053","2018-03-27T00:00:00Z","2018-03-27T14:40:41Z","Rotes Velles (Spain)","Oval","00:04:00","","39.54334032906919848005067308349680388346314430236816406250","2.5003000432990202893108744319761171936988830566406250","ES-03272018-0011"
"91054","1966-10-31T00:00:00Z","2018-03-27T14:58:35Z","Medford (United States)","Other","","","42.33611520000000183472366188652813434600830078125","-122.874394899999998642670107074081897735595703125","US-03272018-0012"
"91055","2007-04-06T15:30:00Z","2018-03-27T16:07:48Z","San Antonio (United States)","Saturn-like","","","29.42790269041193240872580361155996797606348991394042968750","-98.45506476208194641091004939426056807860732078552246093750","US-03272018-0013"
"91056","2016-05-10T00:00:00Z","2018-03-27T16:29:24Z","Bishopbriggs (United Kingdom)","Egg","00:02:00","","55.904837191589590520073588540981290861964225769042968750","-4.19721975611826222780074147067352896556258201599121093750","GB-03272018-0014"
"91057","2018-03-15T20:02:00Z","2018-03-27T16:44:00Z","Tucson (United States)","Other","","","32.207393905489937645261022680642781779170036315917968750","-110.8302845268631898877195851582655450329184532165527343750","US-03272018-0015"
"91058","2018-03-27T13:25:00Z","2018-03-27T17:59:17Z","Holiday (United States)","Sphere","00:05:00","","28.17600997279591432288725627586245536804199218750","-82.73495050691066132487883066914946539327502250671386718750","US-03272018-0016"
"91059","1994-03-31T00:00:00Z","2018-03-27T19:16:27Z","Rexford (United States)","Triangle","00:05:00","","42.86031823219126660770577075254550436511635780334472656250","-73.9016198425900889498628032470151083543896675109863281250","US-03272018-0017"
"91060","2018-03-27T20:10:00Z","2018-03-27T20:29:38Z","Ellsworth (United States)","N,    A","00:03:00","","44.55120950000000590307536185719072818756103515625","-68.4107240999999959285560180433094501495361328125","US-03272018-0017"
"91062","2016-12-08T00:00:00Z","2018-03-27T23:24:28Z","Tucson (United States)","Fireball","00:20:00","","32.23311004736611516529087850813084514811635017395019531250","-110.96423823350275906620687749182252446189522743225097656250","US-03272018-0019"
"91063","2018-03-27T20:15:00Z","2018-03-27T23:48:55Z","Desert Hot Springs (United States)","Other","00:00:15","","33.9705340000000006739355740137398242950439453125","-116.4946783999999979641870595514774322509765625","US-03272018-0020"
"91064","2018-03-23T14:00:00Z","2018-03-28T01:06:08Z","Frostproof (United States)","Oval","00:10:00","","27.7458626","-81.5306313","US-03282018-0001"
"91065","2018-03-18T20:40:00Z","2018-03-28T02:32:06Z","Moncton (Canada)","Sphere","03:10:00","","46.0891064999999997553459252230823040008544921875","-64.7709612999999961857611197046935558319091796875","CA-03282018-0002"
"91066","2018-03-27T00:00:00Z","2018-03-28T02:31:51Z","Tucson (United States)","Chevron","00:08:00","","32.26188423178969643850315662803041050210595130920410156250","-110.83987929250709758275483807210548548027873039245605468750","US-03282018-0003"
"91067","2018-03-18T20:40:00Z","2018-03-28T02:39:29Z","Moncton (Canada)","Sphere","03:10:00","","46.0969864999999998644852894358336925506591796875","-64.772831300000007104245014488697052001953125","CA-03282018-0004"
"91068","2018-03-18T20:40:00Z","2018-03-28T02:47:45Z","Moncton (Canada)","Sphere","03:10:00","","46.08897650000000112413545139133930206298828125","-64.7740313000000043075488065369427204132080078125","CA-03282018-0005"
"91069","2018-03-18T20:40:00Z","2018-03-28T02:57:09Z","Moncton (Canada)","Sphere","03:10:00","","46.0888465000000024929249775595963001251220703125","-64.76907130000000734071363694965839385986328125","CA-03282018-0006"
"91070","2018-03-28T02:02:00Z","2018-03-28T03:18:44Z","Waverly (United States)","Triangle","00:00:29","","42.73814473124943235451205225672310916706919670104980468750","-92.47069729327752640879403145390824647620320320129394531250","US-03282018-0007"
"91071","2008-07-06T00:00:00Z","2018-03-28T03:29:20Z","Santes (France)","Oval","00:05:00","","50.6001533","2.9602453","FR-03282018-0008"
"91072","2018-03-23T15:30:00Z","2018-03-28T08:38:34Z","Orlando (United States)","Disc","","","28.39717551079015996933527787859929958358407020568847656250","-81.40723504271720085022299746469798265025019645690917968750","US-03282018-0009"
"91073","2018-03-27T00:00:00Z","2018-03-28T09:04:00Z","Netcong (United States)","N,    A","03:00:00","","40.8989877","-74.7065516","US-03282018-0010"
"91074","2015-12-29T00:00:00Z","2018-03-28T09:17:43Z","Kennedale (United States)","Fireball","00:20:00","","32.65086514961535854452741034492646576836705207824707031250","-97.24937090345756198919779933476092992350459098815917968750","US-03282018-0010"
"91075","2018-03-28T03:15:00Z","2018-03-28T10:24:10Z","Brookline (United States)","Triangle","00:01:00","","42.7033563016366862420291283797268988564610481262207031250","-71.6899668079596791154962431846797699108719825744628906250","US-03282018-0011"
"91076","2018-03-24T00:00:00Z","2018-03-28T11:12:10Z","Arvada (United States)","Sphere","","","39.78476349650497970845061639465711778029799461364746093750","-105.12793430434651717194789455334102967754006385803222656250","US-03282018-0012"
"91078","2018-03-28T00:00:00Z","2018-03-28T12:33:11Z","Orlando (United States)","N,    A","","","28.44911461108032704819130742635024944320321083068847656250","-81.3153183011480804418908974184887483716011047363281250","US-03282018-0014"
"91079","2018-03-25T00:00:00Z","2018-03-28T13:36:51Z","Lee (United States)","Square,    Rectangular","00:00:05","","42.3042151","-73.2481951","US-03282018-0016"
"91080","2018-03-23T04:03:00Z","2018-03-28T13:53:44Z","Gloucester (United States)","Circle","00:01:00","","42.59566384663696640359695777533488580957055091857910156250","-70.68466313241199628803788674758834531530737876892089843750","US-03282018-0017"
"91081","2018-03-28T00:00:00Z","2018-03-28T14:09:16Z","Murcia (Spain)","Other","00:10:00","","37.9990499000000028217982617206871509552001953125","-1.12361440000000012418013284332118928432464599609375","ES-03282018-0018"
"91082","2011-08-02T18:24:00Z","2018-03-28T14:29:58Z","Chulmleigh (United Kingdom)","Diamond","00:20:00","","50.91396599999999","-3.869414999999999","GB-03282018-0019"
"91084","2017-06-07T01:00:00Z","2018-03-28T21:53:31Z","Saint Joseph (United States)","Sphere","02:00:00","","42.02348231509100351452126176354795461520552635192871093750","-86.51043570767801073792320210031903116032481193542480468750","US-03282018-0021"
"91085","2018-03-27T05:30:00Z","2018-03-28T22:02:30Z","Port Arthur (United States)","N,    A","00:09:00","","29.8640823","-93.9599324","US-03282018-0022"
"91086","2018-01-01T00:00:00Z","2018-03-28T22:50:49Z","Inkster (United States)","Star-like","12:00:00","","42.3265177349999799808735190254083136096596717834472656250","-83.29135605476046221881780695639463374391198158264160156250","US-03282018-0023"
"91087","2018-03-22T15:46:00Z","2018-03-28T23:01:10Z","Satellite Beach (United States)","Cylinder","00:05:00","","28.179063299999999259171090670861303806304931640625","-80.58771189999998796338331885635852813720703125","US-03282018-0024"
"91088","2017-06-05T00:00:00Z","2018-03-28T23:02:19Z","Duluth (United States)","Triangle","00:01:00","","46.79545189999998910934664309024810791015625","-92.091375199999987444243743084371089935302734375","US-03282018-0025"
"91089","2018-03-27T00:00:00Z","2018-03-28T23:43:29Z","Gillett (United States)","Sphere","00:05:00","","29.1283528","-97.7845658","US-03282018-0026"
"91090","2018-03-28T22:30:00Z","2018-03-29T00:22:19Z","None (United States)","Disc","00:03:00","","46.7327130000000039444785215891897678375244140625","-94.68416980000000648942659609019756317138671875","US-03292018-0001"
"91091","2018-03-29T20:45:00Z","2018-03-29T00:28:05Z","Hillman (United States)","Star-like","00:25:00","","45.0591766","-83.90110640000002","US-03292018-0002"
"91092","2017-08-12T22:02:00Z","2018-03-29T00:51:27Z","Scottsdale (United States)","Triangle","00:30:00","","33.50019040000000103418642538599669933319091796875","-111.920051900000004252433427609503269195556640625","US-03292018-0003"
"91093","1968-07-03T00:00:00Z","2018-03-29T00:57:49Z","Montréal (Canada)","Fireball","00:15:00","","45.4818419","-73.5924246","CA-03292018-0004"
"91094","2018-03-24T16:45:00Z","2018-03-29T03:39:26Z","Bobital (France)","N,     A","00:06:00","","48.4076821","-2.0915732","FR-03292018-0005"
"91096","2012-05-16T20:20:00Z","2018-03-29T06:11:07Z","Sacramento (United States)","Square,    Rectangular","00:03:00","","38.65151852895901425569711307161924196407198905944824218750","-121.44598189764546065950590048032609047368168830871582031250","US-03292018-0006"
"91097","2018-03-29T06:23:00Z","2018-03-29T09:13:33Z","Blackshear (United States)","N,    A","00:00:02","","31.2936768417624161865491064327216008678078651428222656250","-82.3284287662981912236248863246146356686949729919433593750","US-03292018-0007"
"91098","2010-01-31T20:00:00Z","2018-03-29T14:49:28Z","Cork (Ireland)","Triangle","","","51.90439169999999791116351843811571598052978515625","-8.4824757000000001738726496114395558834075927734375","IE-03292018-0008"
"91151","2018-03-31T21:55:00Z","2018-04-01T08:48:35Z","Aiken (United States)","Circle","00:00:10","I was sitting on my front porch getting some fresh air and noticed a really bright red light coming from the south headed north . i was looking for blinking lights to identify it as a plane or helicopter , but this object was round, solid red in the middle , with short gold rays coming out of it all around the circle . it was perfectly silent , and moving along about as fast as a little cessna plane would . as it moved directly in front of me , it was only about 7 , 800 feet from me , the front 2/3 of the object disappeared and then a split second later the rest disappeared also . it kind of looked like it was moving into another dimension or something , the way the front part seemed to go through , then the back of it a split second later . i did not see it after that . after the incident two words have been stuck in my head , alpha , belvedere . dont know what it means , if anything , but wanted to let you know .    ","33.50286606784722736726678249397082254290580749511718750","-81.7310539209503209887747282391501357778906822204589843750","US-04012018-0007"
"91152","2018-03-31T00:00:00Z","2018-04-01T08:56:03Z","Doraville (United States)","Cylinder","00:04:00","Looked out window saw bright white object pulsing and moving to my right and going up. no sound. also saw object out my front window. it has been going on for several days.","33.8965983371656913392122589812061050906777381896972656250","-84.2425470470551188806318521073990268632769584655761718750","US-04012018-0008"
"91154","2017-08-26T20:42:00Z","2018-04-01T09:31:41Z","Moncton (Canada)","Star-like","00:02:00","August 26, 2017 at dusk i was standing on my deck and looking up.  i noticed what i assumed to be a satellite (small star size).  as it flew from the west towards the east, i had the thought in my mind of asking it to come back.  i was shocked when it actually made a sharp turn and came back toward the west.  it was very faint but i didn't take my eyes off of it and grabbed my cell phone.  i followed the object with my camera as it descended heading north.   it then quickly ascended up towards the northwest and i was afraid i would lose sight of it because of my roof line.  just then a passenger jet appeared above my house heading southeast right from the direction where the object had just quickly darted to.   when i played the video back, i couldn't catch sight of it and as the months have gone on i just put it near the back of my mind thinking i had just imagined it. last evening i decided to look at the video again, painstakingly moving through the video frame by frame telling myself that i wasn't crazy.  i quickly realized i had captured more than my naked eye had seen.  i don't know of any video / photography experts who could analyze what is on the video but i feel this is an urgent matter as there was air traffic that seemed to have objects swarming it. these are only a few of the screen grabs from the video and i've made exposure adjustments to  a couple of them to try to clearly see the objects.  there are so many of these objects that it's impossible to count or keep track of where they dart off to next.  i realize cell phone cameras don't take the best quality photos but there must be a way to make these photos clearer.","46.095526500000005398760549724102020263671875","-64.773431299999998600469552911818027496337890625","CA-04012018-0010"
"91155","2018-03-30T00:00:00Z","2018-04-01T12:10:23Z","Crescent (United States)","Cylinder","","I am a climate scientist working as a consultant. i monitor air quality conditions via a web site run by the u.S. national park office. this web site contains data, and it also has photos taken every 15 minutes for verification of visibility and conditions. i use this web page frequently, and am familiar with all of the locations and cameras. i seldom see anything out of the ordinary since these cams are in remote areas contained inside the national park system. i captured an image from one of these cams that cannot be explained. i am not offering a solution or suggestion as to what is on the image, i am just indicating that i believe it is a true an accurate photograph of the environment at that particular moment. i have enclosed a video of the information i witnessed.","48.0945314","-123.8071439","US-04012018-0011"
"91156","2018-03-31T16:10:00Z","2018-04-01T14:21:51Z","None (United States)","N,    A","00:03:00","Watching aircraft in my backyard and tracking them on flightradar24 i suddenly noticed a fast moving bright object approach from behind and pass by the b737. the aircraft was approximately 30,000 ft. 500 mph. the object in the photo can be seen ahead and above the aircraft. hard to see in the actual photo but when zoomed in or blown up it is very visible. not a aircraft or balloon. ","35.52127130000000221343725570477545261383056640625","-86.5754773000000028559952625073492527008056640625","US-04012018-0012"
"91157","2017-12-04T20:06:00Z","2018-04-01T16:45:48Z","Glendale (United States)","Teardrop","00:00:10","I do not remember exactly what month and i did not know who to tell about this.  me and my friend were on the access road heading west.  this occured on the north side of the 101 just before 51 ave. my friend was driving and i was the passenger.  it was later in the evening and i was taking a video of myself to send to my girlfriend.  all of a sudden we both see a cone or teardrop shaped object with white lights appear, then shoot straight down at an incredible speed, then shoot back up at the same speed and disappear.  i do have video of this but don't know what to do with it.  my friend saw the same thing as well.","33.6678504","-112.169188","US-04012018-0013"
"91158","2018-03-31T20:00:00Z","2018-04-01T17:10:57Z","Waterloo (United States)","Unknown","02:00:00","I was outside a restaurant eating some deep fried, fatty food. i was sitting in a stationary car looking out the window. i thought it was a star but it was multi-colored, i thought it was a plane after that but the way the lights shined showed it clearly wasn't. it hovered in the air flashing blue, violet, green, and orange lights i was afraid i had to drive away ","42.4604144","-92.33093079999999","US-04012018-0014"
"91159","2018-04-01T15:30:00Z","2018-04-01T18:37:53Z","Beeville (United States)","Disc","00:30:00","I usually do not look outside and not at the sky unless i am already out and going somewhere. i felt a need to look out my 2nd story apartment window. i saw a cloud shaped like a rotating disk over oso bay or perhaps corpus christi bay. it was stationary and behind the normal clouds which were floating to the north. there seem to be something hiding behind the cloud that i could not see. i saw the rotating rim going counter-clockwise. i had another witness look at what i was seeing and he said it ""felt"" weird looking at it. i took several pictures of it and it looks like just a cloud. pictures never seem to capture the ""real"" image of something. i would have thought, yes just a cloud but perhaps not. on thursday march 30, 2018, i was getting in my car and noticed some weird lines in the south and east sky. they looked like lines on a notepad. not the usual chemtrails that look like a grid. these were really close together. as for the ufo shaped cloud, it disappeared, i did not see it go. other clouds were floating by but it was just gone. there and then gone. i have several photos/videos but only will send 2. they are mostly alike but will attach more if needed at another time.","28.43254862797665635923216598257567966356873512268066406250","-97.74823399499634061547735404019476845860481262207031250","US-04012018-0015"
"91160","2018-03-28T14:13:00Z","2018-04-01T20:38:26Z","San José del Cabo (Mexico)","Sphere","00:01:20","I do not know what compelled me to video out takeoff from cabo san lucas, but i did. i was sitting at a window seat in the exit row - row 13 seat a,  i could not visually see anything unusual while i filmed it from my iphone 8. i was facing forward and just tilted the camera to film the take off from the little airplane window...I did not view through the phone at anytime.  later when i reviewed this takeoff event, i noticed the orb like object following in front of the left wing about two feet forward. it appeared to be stable in relation to the wing throughout the turning of the plane onto the runway, acceleration of the plane and take off. also this object did not seem to move as i panned to the wingtip and forward a few times.  there are other obvious flashes of ""sun arcs, flashes"" but this one did not seem to act the same. also there are obvious reflections from the window pane that remained constant. it then all of a sudden disappeared.  i cannot understand what it is and have tried to research for an explanation but have not seen anything to care it to.  i still do not know what made me film this,  i have only filmed once before and that was a flight from lima peru up over the mountains... the landscape from above was spectacular. i was thinking of the safety of this flight, for some odd reason,  the fact that my entire family was on this flight and if it should not go well, the whole family would be gone..  kind of was thinking ... praying ... to my deceased parents to watch for our safety... those were my thoughts.  i felt comfortable once we were stabilized at the right altitude.   i then looked back at the film i just made and that's when i saw the ""orb"" following /guiding the wing/plane.    i cannot stop thinking about it.  it is a positive feeling but also aware that this may just be one of those camera mishaps??  i would appreciate an honest review to ease my mind on the subject.  i am not sure of the direction of takeoff exactly but i also sent a picture of the runway from google images i found.","23.1455358","-109.7182665","MX-04012018-0016"
"91161","2018-03-31T00:00:00Z","2018-04-01T22:00:08Z","None (United States)","Cylinder","","Https://earth.App.Goo.Gl/qaomg found on google maps landing ufo new mexico texas borders","31.96988879999999966230461723171174526214599609375","-99.8965630999999945061063044704496860504150390625","US-04012018-0017"
"91162","2018-04-01T21:23:00Z","2018-04-01T22:05:39Z","None (United States)","Disc","00:01:00","A few weeks ago, the same thing happened in the video i posted along with this sighting. i thought it was just a cop car, but this time it actually landed, hoovered, and then took off. ","41.20572160000000394575181417167186737060546875","-77.1899747000000076013748184777796268463134765625","US-04012018-0017"
"91163","2018-04-01T20:29:00Z","2018-04-01T22:14:04Z","Holly (United States)","Flash","00:03:00","Stepped outside into my back yard at dusk & looked up at the night sky to the west just above the horizon & a pattern of pulsing swerving & randomly flashing lights about 30 or 40 where off in the distance about a mile away & about a half mile wide ? putting quite a lite show for about 3 mins. or so than  they turned green & slowly settled down below the herizon ?","42.78876773520604268281708471022284356877207756042480468750","-83.55956738031828216165273204296681797131896018981933593750","US-04012018-0018"
"91164","2018-03-31T20:30:00Z","2018-04-01T22:39:30Z","Murfreesboro (United States)","Triangle","00:00:10","Preparing to turn onto the on-ramp onto s.R. 840 from veteran's blvd. at night around 8:30pm.  we were south facing on veteran's and turning west onto 840. to our right (southwest from our position), along side the highway, we saw the lights....Before we could say anything they just disappeared. there were 5 lights in a v-shaped pattern like ducks fly.  the front center light was white and the other 4 on the sidewere red.  i assumed, when i saw them it was lights on a tower of some kind, but when we turned and the lights went out, you could see that there was no structure in that area.  there were two of us who saw it.  the driver only saw it for a few seconds and i saw it for about 15 seconds.  they appeared to either be stationary or moving forward very slowly and then disappeared instantly. we were stunned and could not figure out some explanation for the lights.","35.85273129999999497385942959226667881011962890625","-86.3886700000000047339199227280914783477783203125","US-04012018-0019"
"91165","2012-05-16T20:20:00Z","2018-04-01T23:38:36Z","Sacramento (United States)","Square,    Rectangular","00:03:00","My neighbor and i were across the street in the parking lot of the old abandoned mansion / hospital. a work crew had spent the day gutting it; tossing everything into a large construction dumpster. we had planned that when i got home from work at about 6:30, we were gonna go see what was in there. we walked around to the back talking about the history of the building. i was admiring the architecture of the building and we arrived at the dumpster. there was only one ladder leading up the side of the dumpster and my neighbor jumped on it. i complained and he said that i get to be the lookout. so i'm examining the building's original entrance, which was on the second floor when i noticed security cameras up in the eaves. just then a bird caught my eye. it was in mid turn, with its wings at a 45 degree angle against the horizon. strange that it wasn't righting itself like a bird would. i quickly calculated its distance at a quarter mile out and 350 feet up and realized that it would have to be a very large bird. just then it popped into a more compact shape and i yelled ufo! i yelled to my neighbor to get down here and check this out. as he started down the ladder i thought about running across the street and grabbing my new sony camera, but then realized that as fast as it was going that it would overtake me by the time i reached my front yard. so i thought oh well, i'll just use my cellphone's camera and i reached for it on my belt when my neighbor arrived to stand next to me and we watched. before i could pull it off my belt i had four distinct thoughts: this is all commonplace. there is nothing extraordinary happening here. everyone believes in ufos. soon this will be happening all the time. then it was on top of us. about 30 feet above. i could see clearly the bottom of the craft. there were pipes running this way and that way. it was all a dull gray color and completely unaerodynamic as it flew. it was taller than it was wide and wider than it was long. picture a giant gray cigarette pack flying (very well) with the cigarettes perpendicular to the horizon. it was about 60 feet tall, 30 feet wide, and 15 feet long. there were no windows. it was completely silent. it left zero wake. as fast as it was coming at us and as close as it flew over us and as much air that it should have been pushing, we should have been knocked down, but nothing, not even a breeze. we both turned around to watch it gain altitude and clear my house. when it had, something popped out of the lower right of the ship, like a rudder, which caused it to abruptly turn left. the opposite of how you would expect for a rudder to function. and then it was gone. i said wow, to my neighbor, that was amazing. can you believe it? i started reviewing the facts with him and he says that he wishes to someday see a ufo like what i have seen. what?!? dude, we have both just experienced one of the coolest daytime sightings ever. he said no, that was a helicopter. the kind with two rotors. so i ask him didn't he see how the thing was flying. if that was a chinook helicopter it would have had to be flying with it's nose almost on the ground and with its rotors facing forward, which would be impossible. he says he couldn't be sure as he didn't have his glasses on. i reminded him that it was only 30 feet away and completely silent too. he says well, you know they have these special rotor blades now. so i explained to him the difference between noise-dampened and silent. i went home confused. the next day at work i'm telling everyone ""yeah, so i saw one of them ufos again last night. blah blah blah. i still thought everyone believed in ufos. it took me a little over two days to realize that those were not my thoughts when i opened up a huffington post and read that only five % of the population believe in them. i've spent a lot of time analyzing what had happened only to just come up with the questions about it, no answers, only guesses. it was still daylight. why didn't they wait until dark? didn't anybody else see it? did it appear as a chinook to everyone else? it was already turning towards me when i had first seen it. what was its purpose for flying so low right above me? it being so blatant, why did it not want its picture taken? this was not the first time i had been singled out by a ufo. the first time was on the other side of the continent, separated by many years, entailed multiple visits spanning several months, contained contact, and missing time of two hours, but completely different ships. connected or coincidence?","38.64080623673966161102377725455880863592028617858886718750","-121.4243426200916408874697083319915691390633583068847656250","US-04012018-0021"
"91166","2000-01-01T12:01:00Z","2018-04-02T01:14:16Z","None (United States)","Blimp","","I just heard on tv news that 2 airline pilots on 2 different planes spotted a ufo over arizona last month as it passed over their planes. i have only seen a ufo once in my life. it was hovering for about 5 minutes over farmington, mi. it was 1967 and linda, sheila, suzanne and i got out of our car to enjoy the sight. it just hung there in the sky like a bright shining sword. it was longer than 3 passenger airplanes if they were all hooked together with no wings. all of a sudden red fire came out of its tail and it took off toward south lyon. we chased it half way to south lyon before it went over the horizon out of sight. i love thinking about other worlds and love thinking about what they would look like.","35.51943130000000081736288848333060741424560546875","-86.5720073000000098772943601943552494049072265625","US-04022018-0001"
"91167","2012-08-13T01:03:00Z","2018-04-02T01:50:40Z","Woodruff (United States)","Circle","00:30:00"," i came out side to watch the leonids  meteor shower and observed a sphere that was very luminescent and appeared to be rotating slowly sending straight up when it got to maybe around  40,000 feet approximately i observed a military jet in full afterburner trying to reach its elevation but had to level off because it reached its ceiling limit the ufo when the jet got just blow it shot up into the atmosphere and there it would go left a little and write a little north of little and stayed basically in the same area it’ ascended to in the lower atmosphere  was up there for what seemed like at least a half an hour and then i felt a strange sensation of the hairs on the back of my neck standing up like static electricity in the air  i looked to the west and 200 feet or so off the ground was a large double circle of lights rotating counterclockwise that was damning and then brightening as it rotated it was also  traveling due north to south and then it went out of sight . i got an argument with my best friend for over an hour about it 15 minutes after i got off the cell phone i was paid a visit by an on marked black hawk helicopter that when it past my house did a u-turn very quickly and hovered for fifteen seconds or so  and then went and they different heading it was coming from meaning they were tracking my cell phone  having been in the army i snapped to attention and saluted the pilot  all the windows but the pilots were blacked out .  i knew that i was observing an extra terrestrial craft when i saw the 2 ufo’s and there was no sound at all.  i had a 4d cell  mag light and a magnet in my hand and i signaled the large disk of lights which was only less than 200 yards away from me with a sequence of 3×3  it was then that i observed colored small spheres of like moving rapidly past me first being single and then three spears on top of each other rotating end over end  i believe they were knowledge ing my sequence of three . i have a very high iq i know what i saw and what it was and i believe they may be using dark energy and how he focused rotating magnetic fields to affect the dark energy to generate a negative energy field","34.83878773598132728477416719670145539566874504089355468750","-82.05435911370713392072495651063945842906832695007324218750","US-04022018-0002"
"91168","2012-05-16T20:20:00Z","2018-04-02T03:18:28Z","Sacramento (United States)","Square,    Rectangular","00:03:00","My neighbor and i were across the street in the parking lot of the old abandoned mansion / hospital. a work crew had spent the day gutting it; tossing everything into a large construction dumpster. we had planned that when i got home from work at about 6:30, we were gonna go see what was in there. we walked around to the back talking about the history of the building. i was admiring the architecture of the building and we arrived at the dumpster. there was only one ladder leading up the side of the dumpster and my neighbor jumped on it. i complained and he said that i get to be the lookout. so i'm examining the building's original entrance, which was on the second floor when i noticed security cameras up in the eaves. just then a bird caught my eye. it was in mid turn, with its wings at a 45 degree angle against the horizon. strange that it wasn't righting itself like a bird would. i quickly calculated its distance at a quarter mile out and 350 feet up and realized that it would have to be a very large bird. just then it popped into a more compact shape and i yelled ufo! i yelled to my neighbor to get down here and check this out. as he started down the ladder i thought about running across the street and grabbing my new sony camera, but then realized that as fast as it was going that it would overtake me by the time i reached my front yard. so i thought oh well, i'll just use my cellphone's camera and i reached for it on my belt when my neighbor arrived to stand next to me and we watched. before i could pull it off my belt i had four distinct thoughts: this is all commonplace. there is nothing extraordinary happening here. everyone believes in ufos. soon this will be happening all the time. then it was on top of us. about 30 feet above. i could see clearly the bottom of the craft. there were pipes running this way and that way. it was all a dull gray color and completely unaerodynamic as it flew. it was taller than it was wide and wider than it was long. picture a giant gray cigarette pack flying (very well) with the cigarettes perpendicular to the horizon. it was about 60 feet tall, 30 feet wide, and 15 feet long. there were no windows. it was completely silent. it left zero wake. as fast as it was coming at us and as close as it flew over us and as much air that it should have been pushing, we should have been knocked down, but nothing, not even a breeze. we both turned around to watch it gain altitude and clear my house. when it had, something popped out of the lower right of the ship, like a rudder, which caused it to abruptly turn left. the opposite of how you would expect for a rudder to function. and then it was gone. i said wow, to my neighbor, that was amazing. can you believe it? i started reviewing the facts with him and he says that he wishes to someday see a ufo like what i have seen. what?!? dude, we have both just experienced one of the coolest daytime sightings ever. he said no, that was a helicopter. the kind with two rotors. so i ask him didn't he see how the thing was flying. if that was a chinook helicopter it would have had to be flying with it's nose almost on the ground and with its rotors facing forward, which would be impossible. he says he couldn't be sure as he didn't have his glasses on. i reminded him that it was only 30 feet away and completely silent too. he says well, you know they have these special rotor blades now. so i explained to him the difference between noise-dampened and silent. i went home confused. the next day at work i'm telling everyone ""yeah, so i saw one of them ufos again last night. blah blah blah. i still thought everyone believed in ufos. it took me a little over two days to realize that those were not my thoughts when i opened up a huffington post and read that only five % of the population believe in them. i've spent a lot of time analyzing what had happened only to just come up with the questions about it, no answers, only guesses. it was still daylight. why didn't they wait until dark? didn't anybody else see it? did it appear as a chinook to everyone else? it was already turning towards me when i had first seen it. what was its purpose for flying so low right above me? it being so blatant, why did it not want its picture taken? this was not the first time i had been singled out by a ufo. the first time was on the other side of the continent, separated by many years, entailed multiple visits spanning several months, contained contact, and missing time of two hours, but completely different ships. connected or coincidence?","38.63077142475922025055545816485391696915030479431152343750","-121.43318265589341365395803506999072851613163948059082031250","US-04022018-0003"
"91169","2018-04-02T00:00:00Z","2018-04-02T03:25:25Z","None (United States)","N,    A","00:06:00","April 2 at approximately midnight over the north western skies of arizona myself and two other witnesses noticed a very slow pulsating white approximately 6 to 10 second intervals very bright object appeared to be over 35,000 feet in the sky clear visibility stars are shining bright tonight no aircraft can be seen in the area local military base not running night operations. april 2 at approximately midnight over the north western skies of arizona myself and two other witnesses noticed a very slow pulsating light approximately 6 to 10 second intervals very bright object appear to be over 35,000 feet in the sky clear visibility stars are shining bright tonight no aircraft can be seen in the area local military base not running night operations   pulsating light was brighter than any star.  the light was hovering but it was slowly shifting directions from ground c level compared to its elevation from the ground it looks like a matter of a foot or two at in the distance and i could’ve been several miles with the item moved very slowly left to right is if it was an av 8b or f 35 hovering which is impossible at that altitude.  light continue to pulsate for approximately six minutes we tried documenting on a cell phone but the street lights were too bright made it impossible .","34.05782809999999471983755938708782196044921875","-111.08750109999999722276697866618633270263671875","US-04022018-0004"
"91170","2018-04-02T01:03:00Z","2018-04-02T05:46:01Z","Zeeland (United States)","Star-like","00:20:00","Took the dog out to potty.  was standing on the driveway having a cigarette looked up and saw a big bright star and one smaller star in the south east.  then i noticed it ( smaller) star jumped ahead to the north.  stopped, then to the west, then north, then stopped and repeated jerking around but mainly went from south to north west very slowly..  no sound, no flashing lights or colors.  when it was almost straight above me the white light looked cigar shaped.  i thought oh no.  another strange light i can't identify.  took almost half an hour to get north to my house then to the mostly west over my house.  23 degrees out and windy.  went in the house.  i was freezing cold.  to high up to get on camera.  no cell phone.","42.84453541613364049409291567371838027611374855041503906250","-86.02403772166117878210774312265129992738366127014160156250","US-04022018-0005"
"91171","2017-10-18T22:30:00Z","2018-04-02T07:50:08Z","Six-Fours-les-Plages (France)","Triangle","00:00:40","Les fait se sont passã© le 18 octobre 2017 il ã©tait a peu pres 22h30 quand je me suis dirigeais a ma fenetre sans vrai raison valable. une boule lumineuse de couleur orangã© en scintillant de faã§on anormal semblait attirã© mon regard, elle se tenait a l'horizon juste au dessus de la mer mais se tenait bien plus bas que les etoile et pile poile face a ma fenetre.  cette boule lumineuse semblait se dã©placer vers ma ditection a vitesse assez  lente. surpris et intriguais j 'apel ma copine en prenant mon portable pour filmer la scene. la boule se raprochant de nous on pouvait distinguer enfaite 3 lumiã¨re blanche en formation triangulaire...  l' appareil continuer a se diriger vers nous...  ma copine et moi etant sidã©rã© de se qu'on voyait.  personnellement j' etait impressionnã© et stupã©fait mais n'est pas ressenti de la crainte. on l'apercevait clairement il y avait pas un nuage dans le ciel. on a clairement vue un triange noir avec trois lumiã¨re blanche a chaque pointe du triangle et une plus grosse au centre de l'appareil de couleur rouge clignotante. de taille comparable a un ongle il volait a tres faible vitesse en tournant sur lui meme sans faire le moindre bruit s etait tres etrange.  l appareil est enssuite passã© au dessus de mon batiment le voyant plus de ma fenetre je m empresse de descendre en bas de cher moi sans perdre une seconde,  j ã©tait si exitait de ce qu'on venais de voir.  un fois en bas de lotre cã´tã© de mon batiment je revis ce triangle poursuivre sa route en volant de la meme faã§on, il se dirigeait vers la seyne en courbant lã©gã¨rement sur ma droite puis j ai perdu de vue l'apareil bloquã© par les maison alentour. depuis ce jour j observe tres souvent le ciel de nuit et a ma grande surprise j 'ai pus voir encore des phã©nomã¨nes de boule lumineuse orange scintillante apparaissant et disparaissant sans le moidre deplacement...  ","43.10343230000001","5.812850099999999","FR-04022018-0006"
"91172","2018-04-01T21:15:00Z","2018-04-02T09:00:49Z","Bellingham (United States)","Egg","00:10:00","As i was leaving my cousins house returning to portland after holidays,i seen this big red ball or orb in the sky over lummi island coming towards reservation . i was on smokehouse rd it turned north and came overhead almost and continued north and stopped and reversed itself came back over res then went out to lummi island and hoved then disappeared behind island. watched for 10 to 15 minutes.Tried to take picture with cell phone but it wouldn't work right.","48.74678400000001","-122.644355","US-04022018-0007"
"91173","2012-03-01T20:00:00Z","2018-04-02T09:33:11Z","Spring Hill (United States)","Sphere","00:02:00","I was standing outside my garage smoking a cigarette, when i saw a beach ball sized object it was glowing orange and looked like it was on fire. at. that point i called my son to see it. at that point he saw the object. then he ran for his cell phone, then i saw the second object. it was the same as the last one. both objects flew over the trees and then took a 90 degree turn and flew down the street at treetop height and flew out of sight my son never had the chance to get a picture.","28.4963065829855910935428653374401619657874107360839843750","-82.48820878046524513181883582092268625274300575256347656250","US-04022018-0008"
"91175","2017-10-31T00:00:00Z","2018-04-02T14:42:46Z","Portland (United States)","Star-like","","I was trick-or-treating with my younger brother in the west hills when i looked up to see two yellow-white pulsing lights over the nike complex. initially i believed these were either strange government airplanes or the cranes used in the construction of the nike complex. the flaws in this were that there was no sound associated with airplanes and there is no nearby airplane base to warrant test flights, and the lights began slowly and periodically moving in my direction. my friend's cousin who also saw the lights from the other side of town described this movement as being similar to a steam train. soon enough the two lights began moving in what appeared to me to be random movements. these are movements which would be impossible for any publically known aircraft technology besides a drone. however, it was not two drones both because typically any drones i have seen are red or green, cannot fly as high or fast as these were, and made noise. eventually the lights disappeared after what felt like 20 minutes. during this time i became nauseous but that is not necessarily a fault of the lights, it was halloween. at the time i took an image but it was not clear and i cannot locate it currently. the next day i reported my sighting to my friends and they informed me that one of their cousins who lives nearby them had also seen the lights. ","45.5284721999999959507476887665688991546630859375","-122.6751914999999968358679325319826602935791015625","US-04022018-0010"
"91176","2018-03-24T09:20:00Z","2018-04-02T14:53:50Z","Bengaluru (India)","Cylinder","00:00:02","Attached photo was taken from indigo flight 6e 95 blr to dxb on 24/03/18 as i was traveling to dubai for my vacation. i believe the flight was out of bangalore airspace & cruising attitude of 32-35000 ft. ","12.9736586999999996550059222499839961528778076171875","77.602022699999992028097040019929409027099609375","IN-04022018-0011"
"91177","2018-03-28T00:00:00Z","2018-04-02T16:11:57Z","Wright City (United States)","Unknown","12:08:48","On march 28th while on vacation in florida i received an alert from my hd camera at my home in missouri. upon viewing the video a strange object descends into view at my window. a small light appears in the corner of my window. the light splits into 3 lights. then an object appears to be floating at the window.A large spotlight then appears followed by a  face appearing  in the window.A mist forms another face and there appears to be a figure standing by the dining room table. soon after the light dissolves and disappears. 1 minute later the object reappears in the window and stays visible for another 10 minutes then disappears. why would the object disappear only to reappear minutes later. there is not a road only woods and a lake where the object appeared and those windows are a story and a half off the ground. ","38.75913405062992586001264783135411562398076057434082031250","-91.077245511830659578451136203511850908398628234863281250","US-04022018-0012"
"91178","2017-10-06T18:40:00Z","2018-04-02T16:19:07Z","Huntsville (Canada)","Sphere","00:15:00","Standing on the back deck of our house. the object was seen overhead, drifting se. it was a glowing white, but after looking with binoculars i noticed it was nearly transparent with a formation of glowing white lights inside. i watched it and tried to photograph through a low powered telescope and binoculars. lights may have been pulsing. speed of travel was very slow, but may not be affected by wind. ","45.316148014124464517662715934420702978968620300292968750","-79.2233545536220047671982058545836480334401130676269531250","CA-04022018-0013"
"91179","2014-05-15T02:30:00Z","2018-04-02T16:54:32Z","Sherbrooke (Canada)","Unknown","00:02:00","Je suis un abductee j'ai toujours des experiences avec des extraterrestres et lorsque j'ai vu cet ovni j'ã©tais avec un ami qui le confirme. nous sommes sortie du taxi a 2h30 du matin devant mon block appartement et j'ai regardã© dans le ciel j'ai vu 2 grosses lumiã¨res comme 2 gros spotlights sur moi et mon ami. on voyait clairement que c'ã©tais les lumiã¨res paralleles d'un ovni mais le vaisseau ã©tait tellement noir qu'on le voyait pas dans la noirceur de la nuit. ensuite les lumieres diminuaient d'intensitã© en bougeant tres tranquillement sans faire aucun bruit jusqu'ã  ce que les lumiã¨res disparaissent. si quelqu'un aurait regardã© dans la direction des lumiã¨res qui venait de s'ã©tteindre bien la personne aurait aucune idã©e qu'il y a un ovni ã  cet endroit car l'ovni ã©tait aussi noir que la noirceur de la nuit. les ovni sont vraiment pas ce qui importe le plus pour moi car j'ai des contacts direct avec des extraterrestres et ã§a ã§a vaut le coup d'investiguer. j'ai 2 preuves pour le moment. mon implant et le son d'un reptilien sur ma page facebook.","45.41492903637993286241207295915955910459160804748535156250","-71.87762946544587820690885848762263776734471321105957031250","CA-04022018-0014"
"91180","2017-12-05T22:15:00Z","2018-04-02T16:54:43Z","Seattle (United States)","Square,    Rectangular","00:00:02","I was takin a video while going over the bridge southbound to downtown seattle. later on i went to get the perfect still shot from the videos i took and saw this u.F.O.Flying through the video. as if it was on it's way to a specific location. idk... i hadn't seen anything like it before but now they are everywhere!!! i believe that it's from somewhere that they aren't able to freely watch us from. and they have special technology that's allows them to keep tabs on us at their free will from a remote location. .. just a guess... (deep sea beings)","47.6108394999999973151716403663158416748046875","-122.3247707999999960293280309997498989105224609375","US-04022018-0015"
"91181","2017-12-05T22:15:00Z","2018-04-02T17:07:56Z","Seattle (United States)","Square,    Rectangular","00:00:02","I was taking a video of how beautiful downtown seattle was that night and went to get the perfect still shot, when i saw this flying through the video. as if it was on it's way to a specific location. ","47.6070132","-122.33008","US-04022018-0016"
"91182","2018-04-02T22:27:00Z","2018-04-02T17:46:33Z","Banja Luka (Bosnia and Herzegovina)","Disc","00:04:15","1. i was on the road which leads to my house and i was driving my car. 2. the lights and it hovering over small forest near the road. 3. i was shocked, didn't knew what to make of it. then i stopped, took a breath and realized that i am witnessing a ufo sighting. 3. it was hovering over the small forest, it was very dark and dim in colour, a disc shaped as i could have seen because of the external lights which it emmited from the bottom. first it was hovering, stationary, for 3-4 minutes, then it just dissapeared in the night. 5. i was shocked, amazed and scared... didn't knew what to do for first two minutes and my phone battery was dead at the moment... after it dissapeared i got affraid even more and i rushed back home and told this to my wife. 6. it just dissapeared in the night, by motion and it was moving very fast.","44.77303365536943692976912245740095386281609535217285156250","17.18797102938466786449964729399653151631355285644531250","BA-04022018-0017"
"91183","2018-03-23T00:00:00Z","2018-04-02T19:27:55Z","None (United States)","Other","00:15:00","It was early afrenoon on a clear sunny day (no clouds) when i obserceved a small cloud in the sky to the south at about 70 degrees couple miles away from my home window, just 1 no others small, sorta ghostly, disc looking almost did not move in the wind stayed stationary thats what caught my eye, so as i am watching the cloud starts to increase in size until it turns into a pillow type cloud, it then begins to sorta break up leaving a hole in the cebter or opening, the cloud still in the exact same location where i first spotted it, it now starts to break up and sorta collapse on it self with a wispy transparent look, it then just faded away to nothing, i sure it was a cloud but the way it came and went reminded me of those porthole clouds ive seen on the net i really need to start filming this stuff","38.8045197000000001708031049929559230804443359375","-116.4098690000000004829416866414248943328857421875","US-04022018-0018"
"91184","2018-03-30T04:30:00Z","2018-04-02T19:58:12Z","Excelsior Springs (United States)","Triangle","00:03:00","On friday the 30th of march, my friend and i watched a bright white flying object, we slowed and watched it until it was no longer visible, the object flew in a straight path, it had white lights on each side of the craft, the whole event took no more then 3-4 mins, it was quiet, i didn’t hear it moving over, but it was very low, the craft was triangle in shape, and lit up, bright white lights are what made it so rememberable, ","39.33911","-94.2262205","US-04022018-0019"
"91185","2018-04-02T19:57:00Z","2018-04-02T21:40:32Z","North Saint Paul (United States)","N,    A","00:00:03","I was outside having a smoke and letting the dog out. it was moderately snowing. low light. it was 7:57 pm. an airplane was flying over head so i looked up to see if i could see it. i couldn't and was just thinking about how stupid it was to even think i could. as i was lowering my head from looking straight up, on the horizon over the trees i see this rectangular object smoothly and quickly crosses my field of vision. it reflected the light. i t could have even be a sphere because it had highlights and low lights. it may have just appeared to have a box look. i heard nothing. it had to be really close. i would guess around 75-100 feet. it was snowing. it flew so smoothly. it's hard to explain why it really startled me, but it wasn't like a drone. and certainly wasn't the airplane. it came out-of nowhere and disappeared just as fast. it has me kinda shook. ","45.0160656999999986283000907860696315765380859375","-92.987472800000006145637598820030689239501953125","US-04022018-0020"
"91186","2018-03-17T00:00:00Z","2018-04-02T22:13:30Z","None (United States)","Cone","","I have been recently seeing these strange lights, thought  to be strones or projects of the government. i am not sure what they are some appear to be drones while others appear to be stars that are moving,. some say they are stationary drones that monitor everything. this all started in bethany, ct and now i see them in north haven where i live. i have contacted the water company as well as the epa and they all deny drone use as well as any lights.  there is a landfill in beacon falls where i see a lot of them but they are different from these floating star like crafts. if you guys have any answers what these things might be you can clearly see in some of the videos that these are completely silent moving and they appear to like stars but i know they are not.","41.60466070000000371464921045117080211639404296875","-73.085879000000005589754437096416950225830078125","US-04022018-0021"
"91187","2018-03-25T03:06:00Z","2018-04-02T23:59:46Z","Vancouver (United States)","Sphere","00:04:00","I was walking into the kitchen, most of the time i look out the window for yellow-orange orbs after my 1st sighting 2 years ago. as i did, i noticed a steady/hovering orange light in the distance east over camas, wa.That possibly was a plane as pdx-airport is directly right across the river, but to make sure i ran outside to my front porch and observed for 30-45 sec looking for any indications of sound (if close enough, as it gets closer) blinking plane lights, change in objects direction correlating with  head lights keeping steady glow (towards me). it then bee-lined straight towards me slightly se within 10-secs which must have been several miles and then just stopped at helicopter height and hovered making no sound; so i ran inside my house to get my camera at the ready. i was back outside within 10-seconds. as i toggled to get auto-focus to stabilize so i could stop resetting power on-and-off to reset it. after 3 tries it auto focused but it wouldn't register the object on video film camera mode so i toggled it back and fourth between my neighbors porch light which was picking up fine so i know camera was fully functional. i started cursing and as i did that the object reversed course exactly the way it came without any change in headlight glow strength or direction meaning obviously the object could not have been a plane nor did it have any blinking lights. it then ascended dodging back-and-fourth left-and-right up straight up into clouds above them. i always wanting to prove to my belittling p.O.Officer mother that i was not mentally ill and now because of this story she thinks i'm even crazier. thank you, ","45.6796042185687958811392661573336226865649223327636718750","-122.611026636195552347767545597889693453907966613769531250","US-04022018-0022"
"91188","2018-02-14T17:30:00Z","2018-04-03T00:09:27Z","Orillia (Canada)","Cigar","00:01:00","We were driving from orillia to barrie to take our kids out for valentine’s day diner and as we were coming over a bridge i knoticed an object bright in the sky .  it was almost like 2 cigar shapes very close together above the trees and pretty far back.  i pointed it out to my husband and (him being really sceptic on all levels) saw it too.  i got my cell phone out to record it as it didn’t look like anything i had ever seen in the sky unless it was an asteroid!  he slowed down for me but when i started recording i couldn’t see it through my phone so i opened my window and held my phone recording outside the suv while driving.  we only caught a few seconds of it on camera which surprised me as i didn’t think we caught it on camera at all.  on video it only looks like 1 orb but was def. 2 in actual view.","44.6152464999999978090272634290158748626708984375","-79.418558300000000826912582851946353912353515625","CA-04032018-0001"
"91189","2018-03-31T00:00:00Z","2018-04-03T00:22:18Z","Evergreen (United States)","Cone","","Caught in a photo of the full moon.  i could not see it with the naked eye. but when i was looking at photos. there was this strange green  spaceship looking thing, with a purple exhaust coming out the bottom.  and it is in a few different photos. i was facing east. and in the photos there was a rainbow around the moon.  with some clouds below the moon. the green spaceship starts to go down in the photos and threw the clouds. ","39.7343071405133221383509326096827862784266471862792968750","-105.414170579400062696002748907631030306220054626464843750","US-04032018-0002"
"91190","2018-04-03T01:15:00Z","2018-04-03T01:36:30Z","Columbus (United States)","Unknown","01:00:00","Posted to youtube https://www.Youtube.Com/watch?V=gbp8elm5f1s&t=53s","35.2496474300963094908354378276271745562553405761718750","-82.13269535294888754523772751326760044321417808532714843750","US-04032018-0003"
"91191","2018-04-01T00:00:00Z","2018-04-03T01:46:48Z","Weidman (United States)","Egg","00:05:00","I was looking out my upstairs window in the afternoon. i was watching the detroit tigers on fox sports detroit. i noticed several black oval craft hovering in the sky. they hovered for a few seconds in place then blinked out and reappeared in another part of the sky. this happened for around 4-5 minutes. i want to be clear, i didn’t witness these craft for 4-5 minutes in total time. in this 4-5 minutes i seen these crafts 5-6 times for no more than 3-4 seconds each time. once they disappeared i scanned the sky until i could locate them again. these crafts were high altitude. i called my son into the room to verify, unfortunately he wasn’t able to see what i witnessed.","43.6405318072818652946928352776012616232037544250488281250","-85.01284705835033640942164367970690364018082618713378906250","US-04032018-0003"
"91192","2009-05-06T00:00:00Z","2018-04-03T05:34:09Z","Mandurah (Australia)","Sphere","00:20:00","I was travelling home from work at approximately 1900 hours, when i noticed two distinct lights traveling in a westerly direction. this caught my attention as two lights were travelling together. i pulled my car over to ring my wife and a friend to see if it can be spotted from other areas. to my surprise, my friend luke, who lives approximately 150km from where i was at at the time, could in fact see it from his backyard. immediately i realised this object must be huge, and continued to watch it head in a westerly direction for approximately 20 minutes, it was 2 white lights diagonally opposed, and one was larger than the other. it made no sound, and did not change course, i watched until it went out of sight over the thanks, kind regards","-32.5361038","115.7424077","AU-04032018-0004"
"91193","1966-08-16T00:00:00Z","2018-04-03T11:33:38Z","None (United States)","Cylinder","00:20:00","This was long ago with my parents and best friend. my friend and i were probably 13 years old. i see so many reports of ""ufos"" which are lights 10 miles away and they make the news. we were within 100 feet of this craft hovering and watched it up close for several minutes before it took off in an instant and was gone. no propulsion noise at all, but the dust/dirt flew across the road in the same direction that the craft went, not the opposite as with a normal plane. we tried to tell our science teacher but everyone in class got a good laugh. we observed this for almost a half hour and watched it in the distance as a big bright light (headlight type). when we seen it was going to be crossing the road ahead of us, my dad sped up the pickup and said we would catch it when it crossed the road and he would show us that it was most likely a helicopter because we watched it hovering in the distance. we were probably going 60 mph when we got near and the pickup just quit running. we coasted up until we were almost under it. it was above the power lines maybe 20' and was so close that the headlights of the pickup were not on it, but under it. it moved extremely slow, maybe taking 3-4 minutes to get across the road, then just vanished to the west. i remember like it was yesterday, but have seldom mentioned it to anybody because nobody believes. ok, thanks for your time. ","43.976354799999995748294168151915073394775390625","-99.8920231000000029553120839409530162811279296875","US-04032018-0006"
"91194","2018-03-26T03:15:00Z","2018-04-03T12:00:40Z","Bridgeville (United States)","Boomerang","00:00:03","412 906 7844 sitting in hot tub 3:15 am notice movement above. v shaped craft glided above my head heading west over trees about the size of a 737 and no more than 200 ft above tree tops no lights. probably wouldn’t have seen it if it hadn’t been for the ambient light from the large parking lot next door. appeared dark brown but that could be the low light level. it glided smoothly above my head at less than 200 knots. the were regularly spaced artifacts on the underside but could say what they were. the pumps in the tub were off so i can say the craft made no sound. got a very clear look at it but for only 3 seconds or so. ","40.3026078116590158818603129020630149170756340026855468750","-80.14686346709908097646852809248230187222361564636230468750","US-04032018-0007"
"91195","2018-03-31T00:00:00Z","2018-04-03T13:48:02Z","Ystrad Mynach (United Kingdom)","Square,    Rectangular","00:16:00","Looking through flat window noticed 4 lights in formation moving s. down wae telling wife when noticed 7 more travelling same drection,, grabbed for mobile phone too late to photo. then captued on phone 2 more trvelling past","51.6424224","-3.2438144","GB-04032018-0008"
"91196","2018-03-21T07:00:00Z","2018-04-03T13:49:23Z","Pearl River (United States)","Disc","00:00:05","I was on my way to work and around 7am in the morning. it was a cloudy morning, it was just before the last nor'easter was to hit the east coast. i just had happened to look out my driver's side window, and this faint red- orange disk was high in the sky. i knew it couldn't be the sun, there was no break in the clouds and it would have been too high in the sky for the sun to be, since sunrise was around 7am at the time. also, the distance it was away from me it was considerably smaller than what the sun would look like. i was able to keep my eyes on it for a good 5 - 10 seconds transfixed on it and making sure to keep my eyes on the road. but then, without any flight or movement, it vanished. nothing moved in front of it, it just disappeared. i kept looking for a sign of it in the sky but at that point it was gone.   ","41.0589855","-74.02180629999999","US-04032018-0009"
"91197","2017-08-15T00:00:00Z","2018-04-03T15:01:58Z","Cahors (France)","Other","00:02:00","Observation effectuã©e courant aoã»t 2017, en pleine canicule nocturne. a 2 h du matin environ, mon ã©pouse et moi-mãªme tentions de dormir fenãªtre de la chambre ouverte (+ de 30 â° c ã  l'extã©rieur). tournã©s vers l'extã©rieur, nous avons vu passer un peu en dessous de la cime des arbres une forme/objet gris foncã© non lumineuse qui semblait avoir l'apparence du signe mathã©matique infini (comme le chiffre 8 renversã©). il progressait lentement en ligne droite. le temps nã©cessaire ã  mon lever pour me prã©cipiter vers une autre fenãªtre, le phã©nomã¨ne avait disparu. cela n'a durã© que environ deux minutes, peut-ãªtre moins. un lã©ger bruit, semblable ã  un petit bourdonnement accompagnait l'ensemble. le lendemain, pensant que mon ã©pouse dormait ã  l'instant du phã©nomã¨ne, je lui ai fait part de mon observation. sa rã©ponse fut sans appel : ""moi aussi, je l'ai vu passer"". pour information, j'ai fait part au mufon de cette observation peu de temps aprã¨s, mais je n'ai reã§u aucune rã©ponse. peut-ãªtre est-ce normal, ou bien me prend-on pour un illuminã©, mais peu importe. je vous souhaite bonne rã©ception de ce document.","44.4413380272528398764108001250860979780554771423339843750","1.4094271813501417823054850941844051703810691833496093750","FR-04032018-0010"
"91198","2018-04-02T12:51:00Z","2018-04-03T16:11:25Z","None (United States)","Oval","00:40:00","I happen to look outside the sun seemed to be really bright and that’s when i saw ahi get orb around the sun it was hard to look at it was extremely bright so i put my sun glasses on and that’s when i saw the green orb inside the large orb going back and forth then unexpected patterns . i called my friend to come see we both took separate pictures of this ufo . neither of us had ever seen anything like it my older daughter was over and i made her look as well it was pretty incredible you have to look good to see green orb these are live photos so you can see the green orb in motion ","32.16861209999999715591911808587610721588134765625","-82.8928950999999898385794949717819690704345703125","US-04032018-0011"
"91199","2018-04-01T18:02:00Z","2018-04-03T20:39:22Z","New Port Richey (United States)","Disc","00:05:00","I was talking on the phone to a good friend of mine at about 6 in the afternoon. it was still blue skies with no clouds when i looked up and saw a black disc flying from the north coming over my house as it was flying? it turned over and over from left to right about 3 times in a second maybe a second and a half and did the same thing going the other direction it hovered in one place just south of the house for about 10 seconds and then continued south. there was no vapor trail no lights that i could see of any kind except for a glow of a turquoise orange that i could see when the object was flipping over left to right and right to left. an aircraft doing tight turns like that would probably make the pilot pass out from the g forces and the plane would probably fall apart if it was a normal airplane. i was wondering if maybe the government has an experimental craft. i have seen a stealth bomber and fighter flying overhead. this did not look anything like that. i lost sight of the object as it went over some trees headed southeast. maybe the tampa airport saw something on their radar. if it's not an airplane then i think i just saw my proof that we are not alone in the universe. even though i am intelligent enough to know that the percentages are high enough 2 know that we probably aren't alone anyway.","28.25226422492276254131589041662664385512471199035644531250","-82.7019647550673857781482922746363328769803047180175781250","US-04032018-0012"
"91200","2018-04-02T12:51:00Z","2018-04-03T22:50:14Z","None (United States)","Oval","00:40:00","I happen to look outside the sun seemed to be really bright and that’s when i saw ahi get orb around the sun it was hard to look at it was extremely bright so i put my sun glasses on and that’s when i saw the green orb inside the large orb going back and forth then unexpected patterns . i called my friend to come see we both took separate pictures of this ufo . neither of us had ever seen anything like it my older daughter was over and i made her look as well it was pretty incredible you have to look good to see green orb these are live photos so you can see the green orb in motion ","32.1680520999999970399585436098277568817138671875","-82.89662509999999429055606015026569366455078125","US-04032018-0013"
"91251","2018-04-04T21:10:00Z","2018-04-06T22:43:23Z","Winnipeg (Canada)","Unknown","00:03:00","I was walking in a dark hilled area in winnipeg at about 9:00pm. i like watching the stars so i looked up and saw a bright ""star"". the power lines were in my line of sight so that's how i noticed it was moving as i went from one side to the other of the line. i originally thought it was the iss as i've seen it several times before, until i quickly noticed a secont faint light a fair distance away to the left and up. this light moved as a fixed pace to the first. the both traveled from the north directly above and over the horizon into the southeast where they disappeared. it didn't look like anything i've seen before and i've watched the stars for a long time. it was exhilarating to know i could be seeing something unusual. 6 minutes later on my way back, i saw the biggest and brightest comet fall into the northwest. directly across from where the lights disappeared. the falling object looked like a rectangle and burned blue and white over the horizon.","49.89633599999999802321326569654047489166259765625","-97.1287743999999833022229722701013088226318359375","CA-04062018-0015"
"91252","2018-04-06T22:30:00Z","2018-04-06T23:55:59Z","Reading (United States)","Sphere","00:02:00","I don't hear/see many helicopters in my area and this one sounded low and loud, when i looked out my window i saw the helicopter chasing a white starlike ball in the sky, both traveling very fast, but the helicopter was failing to keep up. it was after 10:30pm so i could not tell if it was a black helicopter. i've heard several more helicopters flying around between the first sighting and midnight. ","40.336808300000001281659933738410472869873046875","-75.918664699999993672463460825383663177490234375","US-04062018-0016"
